october_scenarios/chiledeets.txt

Target: DefaultSC

Observer: Antofagasta,-23.65714,289.65338
Start Time (UTC)            Stop Time (UTC)               Duration (s)         
01 May 2026 13:26:26.704    01 May 2026 13:32:50.850      384.14537193    
02 May 2026 03:20:16.760    02 May 2026 03:29:01.333      524.57273933    
02 May 2026 05:03:26.122    02 May 2026 05:09:02.776      336.65421180    
02 May 2026 10:12:44.926    02 May 2026 10:17:55.755      310.82913028    
02 May 2026 11:52:33.950    02 May 2026 12:01:27.035      533.08492913    
03 May 2026 01:49:16.652    03 May 2026 01:54:49.108      332.45546044    
03 May 2026 03:28:44.277    03 May 2026 03:37:18.719      514.44223233    
03 May 2026 05:14:16.374    03 May 2026 05:15:41.262      84.888749477    
03 May 2026 10:20:20.055    03 May 2026 10:27:36.927      436.87220070    
03 May 2026 12:01:07.172    03 May 2026 12:09:30.241      503.06835267    
04 May 2026 01:56:19.043    04 May 2026 02:04:12.596      473.55250209    
04 May 2026 03:37:40.531    04 May 2026 03:45:19.469      458.93809263    
04 May 2026 10:28:15.741    04 May 2026 10:36:42.485      506.74360179    
04 May 2026 12:10:12.199    04 May 2026 12:16:53.017      400.81790993    
05 May 2026 02:04:10.798    05 May 2026 02:12:53.971      523.17340731    
05 May 2026 03:47:09.157    05 May 2026 03:53:01.802      352.64481828    
05 May 2026 08:56:46.322    05 May 2026 09:01:35.022      288.69964957    
05 May 2026 10:36:27.312    05 May 2026 10:45:18.804      531.49189625    
06 May 2026 00:33:23.248    06 May 2026 00:38:30.100      306.85140844    
06 May 2026 02:12:34.610    06 May 2026 02:21:12.949      518.33872347    
06 May 2026 03:57:38.984    06 May 2026 03:59:58.098      139.11375051    
06 May 2026 09:04:17.235    06 May 2026 09:11:21.261      424.02572605    
06 May 2026 10:44:57.570    06 May 2026 10:53:25.212      507.64247824    
07 May 2026 00:40:16.567    07 May 2026 00:48:01.098      464.53077818    
07 May 2026 02:21:27.135    07 May 2026 02:29:15.085      467.95013576    
07 May 2026 09:12:10.496    07 May 2026 09:20:29.959      499.46315131    
07 May 2026 10:53:57.439    07 May 2026 11:00:53.116      415.67758466    
08 May 2026 00:48:03.721    08 May 2026 00:56:45.250      521.52906588    
08 May 2026 02:30:51.163    08 May 2026 02:36:59.500      368.33645358    
08 May 2026 07:40:47.402    08 May 2026 07:45:12.123      264.72053721    
08 May 2026 09:20:19.763    08 May 2026 09:29:09.094      529.33052791    
08 May 2026 11:04:29.934    08 May 2026 11:06:41.992      132.05863325    
08 May 2026 23:17:30.413    08 May 2026 23:22:07.941      277.52774998    
09 May 2026 00:56:23.776    09 May 2026 01:05:05.896      522.12082300    
09 May 2026 02:41:07.680    09 May 2026 02:44:06.493      178.81357792    
09 May 2026 07:48:13.494    09 May 2026 07:55:04.047      410.55238332    
09 May 2026 09:28:47.154    09 May 2026 09:37:18.640      511.48588238    
09 May 2026 23:24:13.208    09 May 2026 23:31:47.942      454.73364639    
10 May 2026 01:05:12.575    10 May 2026 01:13:09.442      476.86707593    
10 May 2026 07:56:04.255    10 May 2026 08:04:15.994      491.73891741    
10 May 2026 09:37:42.258    10 May 2026 09:44:51.327      429.06865220    
10 May 2026 23:31:55.558    10 May 2026 23:40:35.095      519.53681657    
11 May 2026 01:14:32.124    11 May 2026 01:20:55.830      383.70656610    
11 May 2026 06:24:48.298    11 May 2026 06:28:46.897      238.59913393    
11 May 2026 08:04:11.235    11 May 2026 08:12:57.966      526.73148561    
11 May 2026 09:47:50.536    11 May 2026 09:51:04.156      193.61953984    
11 May 2026 22:01:38.946    11 May 2026 22:05:41.796      242.85013871    
11 May 2026 23:40:11.797    11 May 2026 23:48:57.494      525.69726803    
12 May 2026 01:24:38.321    12 May 2026 01:28:10.531      212.21017591    
12 May 2026 06:32:08.770    12 May 2026 06:38:45.322      396.55178786    
12 May 2026 08:12:35.844    12 May 2026 08:21:10.596      514.75182348    
12 May 2026 22:08:09.034    12 May 2026 22:15:32.986      443.95178254    
12 May 2026 23:48:56.854    12 May 2026 23:57:02.455      485.60049705    
13 May 2026 06:39:56.927    13 May 2026 06:48:00.610      483.68361164    
13 May 2026 08:21:26.483    13 May 2026 08:28:47.762      441.27884862    
13 May 2026 22:15:46.323    13 May 2026 22:24:23.382      517.05909320    
13 May 2026 23:58:12.006    14 May 2026 00:04:50.693      398.68736803    
14 May 2026 05:08:49.219    14 May 2026 05:12:18.988      209.76862527    
14 May 2026 06:48:01.601    14 May 2026 06:56:45.413      523.81194520    
14 May 2026 08:31:18.470    14 May 2026 08:35:16.602      238.13266656    
14 May 2026 20:45:50.352    14 May 2026 20:49:09.992      199.63987910    
14 May 2026 22:23:58.641    14 May 2026 22:32:47.588      528.94651521    
15 May 2026 00:08:09.568    15 May 2026 00:12:11.343      241.77478339    
15 May 2026 05:16:02.918    15 May 2026 05:22:25.014      382.09655641    
15 May 2026 06:56:23.472    15 May 2026 07:05:01.051      517.57920863    
15 May 2026 20:52:04.084    15 May 2026 20:59:16.005      431.92067386    
15 May 2026 22:32:39.929    15 May 2026 22:40:53.962      494.03301330    
16 May 2026 05:23:48.363    16 May 2026 05:31:43.752      475.38944080    
16 May 2026 07:05:09.902    16 May 2026 07:12:42.451      452.54893749    
16 May 2026 20:59:36.019    16 May 2026 21:08:09.953      513.93363521    
16 May 2026 22:41:50.779    16 May 2026 22:48:43.959      413.17921258    
17 May 2026 03:52:50.652    17 May 2026 03:55:47.744      177.09222240    
17 May 2026 05:31:50.744    17 May 2026 05:40:31.414      520.66972823    
17 May 2026 07:14:49.340    17 May 2026 07:19:23.606      274.26595321    
17 May 2026 19:30:08.738    17 May 2026 19:32:28.377      139.63940208    
17 May 2026 21:07:44.355    17 May 2026 21:16:36.085      531.73003430    
17 May 2026 22:51:40.862    17 May 2026 22:56:09.434      268.57130810    
18 May 2026 03:59:55.892    18 May 2026 04:06:03.117      367.22481520    
18 May 2026 05:40:09.965    18 May 2026 05:48:50.042      520.07763729    
18 May 2026 19:35:58.531    18 May 2026 19:42:56.868      418.33641623    
18 May 2026 21:16:21.884    18 May 2026 21:24:43.914      502.02975785    
19 May 2026 04:07:38.538    19 May 2026 04:15:25.457      466.91905009    
19 May 2026 05:48:52.436    19 May 2026 05:56:35.498      463.06229451    
19 May 2026 19:43:24.781    19 May 2026 19:51:54.764      509.98279162    
19 May 2026 21:25:28.540    19 May 2026 21:32:35.601      427.06098355    
20 May 2026 02:36:53.905    20 May 2026 02:39:11.879      137.97350919    
20 May 2026 04:15:38.645    20 May 2026 04:24:16.015      517.37036502    
20 May 2026 05:58:21.584    20 May 2026 06:03:26.768      305.18354131    
20 May 2026 19:51:29.057    20 May 2026 20:00:22.950      533.89349288    
20 May 2026 21:35:11.973    20 May 2026 21:40:05.098      293.12578415    
21 May 2026 02:43:47.707    21 May 2026 02:49:39.639      351.93170010    
21 May 2026 04:23:55.304    21 May 2026 04:32:37.629      522.32540881    
21 May 2026 18:19:52.626    21 May 2026 18:26:35.459      402.83354317    
21 May 2026 20:00:02.852    21 May 2026 20:08:32.296      509.44372733    
22 May 2026 02:51:27.461    22 May 2026 02:59:05.761      458.30002403    
22 May 2026 04:32:34.046    22 May 2026 04:40:26.997      472.95089444    
22 May 2026 18:27:12.773    22 May 2026 18:35:37.791      505.01747205    
22 May 2026 20:09:05.418    22 May 2026 20:16:25.621      440.20339649    
23 May 2026 01:21:03.295    23 May 2026 01:22:27.148      83.853347227    
23 May 2026 02:59:25.326    23 May 2026 03:07:59.273      513.94716203    
23 May 2026 04:41:54.459    23 May 2026 04:47:26.919      332.45968837    
23 May 2026 18:35:12.913    23 May 2026 18:44:08.196      535.28276315    
23 May 2026 20:18:42.844    23 May 2026 20:23:58.554      315.70950545    
24 May 2026 01:27:38.434    24 May 2026 01:33:14.592      336.15764533    
24 May 2026 03:07:39.509    24 May 2026 03:16:23.870      524.36077043    
24 May 2026 17:03:46.659    24 May 2026 17:10:11.649      384.98976297    
24 May 2026 18:43:42.981    24 May 2026 18:52:19.114      516.13282113    
25 May 2026 01:35:15.181    25 May 2026 01:42:44.703      449.52277268    
25 May 2026 03:16:14.740    25 May 2026 03:24:17.036      482.29535914    
25 May 2026 17:11:00.205    25 May 2026 17:19:19.058      498.85279045    
25 May 2026 18:52:41.589    25 May 2026 19:00:14.067      452.47797787    
26 May 2026 01:43:10.864    26 May 2026 01:51:41.259      510.39559428    
26 May 2026 03:25:27.593    26 May 2026 03:31:24.582      356.98900928    
26 May 2026 17:18:56.142    26 May 2026 17:27:51.895      535.75304355    
26 May 2026 19:02:13.549    26 May 2026 19:07:50.011      336.46255843    
27 May 2026 00:11:28.242    27 May 2026 00:16:48.022      319.78024158    
27 May 2026 01:51:22.689    27 May 2026 02:00:08.874      526.18523781    
27 May 2026 15:47:41.066    27 May 2026 15:53:45.368      364.30192633    
27 May 2026 17:27:22.517    27 May 2026 17:36:04.478      521.96173490    
27 May 2026 19:13:05.278    27 May 2026 19:14:21.543      76.265394897    
28 May 2026 00:19:01.851    28 May 2026 00:26:22.383      440.53183654    
28 May 2026 01:59:54.625    28 May 2026 02:08:05.752      491.12654238    
28 May 2026 15:54:47.332    28 May 2026 16:02:58.642      491.31009505    
28 May 2026 17:36:17.271    28 May 2026 17:44:01.037      463.76657555    
29 May 2026 00:26:55.378    29 May 2026 00:35:22.048      506.66923744    
29 May 2026 02:09:00.807    29 May 2026 02:15:20.121      379.31405415    
29 May 2026 16:02:38.936    29 May 2026 16:11:34.111      535.17468123    
29 May 2026 17:45:44.166    29 May 2026 17:51:39.632      355.46575952    
29 May 2026 22:55:17.303    29 May 2026 23:00:19.885      302.58259107    
30 May 2026 00:35:04.919    30 May 2026 00:43:52.679      527.76055365    
30 May 2026 14:31:36.272    30 May 2026 14:37:16.392      340.11918653    
30 May 2026 16:11:01.608    30 May 2026 16:19:48.428      526.82002931    
30 May 2026 17:56:11.610    30 May 2026 17:58:32.977      141.36741743    
30 May 2026 23:02:47.552    30 May 2026 23:09:58.774      431.22275595    
31 May 2026 00:43:33.727    31 May 2026 00:51:53.162      499.43551366    


Number of events : 135


Observer: Santiago,-33.46620000000001,289.27789
Start Time (UTC)            Stop Time (UTC)               Duration (s)         
02 May 2026 03:22:48.165    02 May 2026 03:30:06.631      438.46591377    
02 May 2026 05:03:13.896    02 May 2026 05:11:50.409      516.51237078    
02 May 2026 06:46:08.809    02 May 2026 06:52:49.788      400.97900152    
02 May 2026 08:28:37.767    02 May 2026 08:35:10.140      392.37263632    
02 May 2026 10:09:39.083    02 May 2026 10:18:12.322      513.23917641    
02 May 2026 11:51:09.921    02 May 2026 11:59:01.683      471.76238406    
03 May 2026 03:30:28.517    03 May 2026 03:38:53.979      505.46219969    
03 May 2026 05:11:59.917    03 May 2026 05:20:06.334      486.41721052    
03 May 2026 06:55:07.330    03 May 2026 07:01:20.142      372.81150474    
03 May 2026 08:37:01.065    03 May 2026 08:44:11.681      430.61592523    
03 May 2026 10:17:57.244    03 May 2026 10:26:48.052      530.80777642    
03 May 2026 12:00:20.074    03 May 2026 12:06:12.322      352.24765625    
04 May 2026 02:00:09.718    04 May 2026 02:04:16.849      247.13134506    
04 May 2026 03:38:36.730    04 May 2026 03:47:23.608      526.87761864    
04 May 2026 05:20:56.483    04 May 2026 05:28:22.140      445.65693825    
04 May 2026 07:03:55.627    04 May 2026 07:10:03.134      367.50606021    
04 May 2026 08:45:18.084    04 May 2026 08:53:10.997      472.91293794    
04 May 2026 10:26:22.190    04 May 2026 10:35:05.333      523.14332330    
05 May 2026 02:06:48.107    05 May 2026 02:13:55.254      427.14620142    
05 May 2026 03:47:05.217    05 May 2026 03:55:43.850      518.63331709    
05 May 2026 05:29:57.817    05 May 2026 05:36:42.015      404.19728647    
05 May 2026 07:12:30.673    05 May 2026 07:18:57.933      387.25957250    
05 May 2026 08:53:33.225    05 May 2026 09:02:01.687      508.46173929    
05 May 2026 10:35:00.226    05 May 2026 10:42:58.415      478.18903334    
06 May 2026 02:14:24.073    06 May 2026 02:22:45.018      500.94478241    
06 May 2026 03:55:49.328    06 May 2026 04:03:59.570      490.24255690    
06 May 2026 05:38:56.694    06 May 2026 05:45:10.605      373.91169774    
06 May 2026 07:20:54.474    06 May 2026 07:27:58.839      424.36548450    
06 May 2026 09:01:50.443    06 May 2026 09:10:38.783      528.33961534    
06 May 2026 10:44:05.222    06 May 2026 10:50:14.409      369.18719203    
07 May 2026 00:44:22.017    07 May 2026 00:47:52.492      210.47434746    
07 May 2026 02:22:29.206    07 May 2026 02:31:15.652      526.44643636    
07 May 2026 04:04:44.548    07 May 2026 04:12:14.720      450.17202484    
07 May 2026 05:47:45.973    07 May 2026 05:53:51.623      365.64988692    
07 May 2026 07:29:11.475    07 May 2026 07:36:58.334      466.85918098    
07 May 2026 09:10:13.929    07 May 2026 09:18:57.927      523.99824285    
08 May 2026 00:50:47.159    08 May 2026 00:57:42.325      415.16618034    
08 May 2026 02:30:55.231    08 May 2026 02:39:36.229      520.99723821    
08 May 2026 04:13:45.275    08 May 2026 04:20:33.431      408.15579195    
08 May 2026 05:56:22.043    08 May 2026 06:02:44.844      382.80099712    
08 May 2026 07:37:26.147    08 May 2026 07:45:49.840      503.69331659    
08 May 2026 09:18:49.635    08 May 2026 09:26:53.672      484.03747998    
09 May 2026 00:58:18.486    09 May 2026 01:06:34.767      496.28029384    
09 May 2026 02:39:37.360    09 May 2026 02:47:51.809      494.44903397    
09 May 2026 04:22:44.406    09 May 2026 04:29:00.322      375.91604465    
09 May 2026 06:04:46.436    09 May 2026 06:11:44.993      418.55710598    
09 May 2026 07:45:42.472    09 May 2026 07:54:28.253      525.78088475    
09 May 2026 09:27:49.959    09 May 2026 09:34:14.555      384.59601573    
09 May 2026 23:28:37.954    09 May 2026 23:31:21.998      164.04451230    
10 May 2026 01:06:20.442    10 May 2026 01:15:06.517      526.07453509    
10 May 2026 02:48:31.147    10 May 2026 02:56:06.380      455.23305307    
10 May 2026 04:31:34.638    10 May 2026 04:37:39.364      364.72569345    
10 May 2026 06:13:03.503    10 May 2026 06:20:44.575      461.07133204    
10 May 2026 07:54:04.567    10 May 2026 08:02:49.216      524.64891574    
10 May 2026 09:38:34.471    10 May 2026 09:39:42.212      67.740648275    
10 May 2026 23:34:45.384    10 May 2026 23:41:27.732      402.34763471    
11 May 2026 01:14:43.935    11 May 2026 01:23:27.497      523.56179443    
11 May 2026 02:57:31.154    11 May 2026 03:04:24.012      412.85782715    
11 May 2026 04:40:11.788    11 May 2026 04:46:30.916      379.12792655    
11 May 2026 06:21:17.771    11 May 2026 06:29:36.830      499.05955670    
11 May 2026 08:02:38.060    11 May 2026 08:10:47.528      489.46849433    
11 May 2026 23:42:11.782    11 May 2026 23:50:23.154      491.37182934    
12 May 2026 01:23:24.009    12 May 2026 01:31:43.001      498.99276498    
12 May 2026 03:06:30.430    12 May 2026 03:12:49.280      378.85009130    
12 May 2026 04:48:36.868    12 May 2026 04:55:30.186      413.31852609    
12 May 2026 06:29:33.258    12 May 2026 06:38:16.509      523.25053706    
12 May 2026 08:11:34.108    12 May 2026 08:18:12.922      398.81405651    
12 May 2026 22:13:04.562    12 May 2026 22:14:38.255      93.692569155    
12 May 2026 23:50:10.438    12 May 2026 23:58:56.118      525.68030568    
13 May 2026 01:32:16.257    13 May 2026 01:39:57.050      460.79275624    
13 May 2026 03:15:21.545    13 May 2026 03:21:26.339      364.79367174    
13 May 2026 04:56:54.068    13 May 2026 05:04:29.730      455.66195055    
13 May 2026 06:37:54.004    13 May 2026 06:46:39.218      525.21401842    
13 May 2026 08:21:43.911    13 May 2026 08:24:15.361      151.45051911    
13 May 2026 22:18:42.848    13 May 2026 22:25:11.291      388.44245999    
13 May 2026 23:58:31.301    14 May 2026 00:07:17.548      526.24676276    
14 May 2026 01:41:15.406    14 May 2026 01:48:13.662      418.25575854    
14 May 2026 03:23:59.790    14 May 2026 03:30:16.115      376.32499592    
14 May 2026 05:05:07.972    14 May 2026 05:13:22.633      494.66039906    
14 May 2026 06:46:25.362    14 May 2026 06:54:39.981      494.61901237    
14 May 2026 22:26:03.933    14 May 2026 22:34:10.015      486.08208674    
15 May 2026 00:07:09.213    15 May 2026 00:15:33.003      503.79027121    
15 May 2026 01:50:14.672    15 May 2026 01:56:37.351      382.67902785    
15 May 2026 03:32:25.613    15 May 2026 03:39:14.347      408.73447708    
15 May 2026 05:13:22.645    15 May 2026 05:22:03.487      520.84254494    
15 May 2026 06:55:17.430    15 May 2026 07:02:09.544      412.11333876    
15 May 2026 22:33:59.146    15 May 2026 22:42:44.294      525.14791695    
16 May 2026 00:15:59.815    16 May 2026 00:23:46.577      466.76195509    
16 May 2026 01:59:06.583    16 May 2026 02:05:12.436      365.85227625    
16 May 2026 03:40:43.020    16 May 2026 03:48:13.728      450.70806316    
16 May 2026 05:21:42.091    16 May 2026 05:30:27.879      525.78844858    
16 May 2026 07:05:08.681    16 May 2026 07:08:30.604      201.92275277    
16 May 2026 21:02:39.632    16 May 2026 21:08:52.762      373.12962532    
16 May 2026 22:42:17.303    16 May 2026 22:51:06.244      528.94135625    
17 May 2026 00:24:57.992    17 May 2026 00:32:02.247      424.25451743    
17 May 2026 02:07:45.950    17 May 2026 02:14:00.371      374.42154272    
17 May 2026 03:48:56.637    17 May 2026 03:57:07.201      490.56444084    
17 May 2026 05:30:11.416    17 May 2026 05:38:31.014      499.59811871    
17 May 2026 21:09:54.994    17 May 2026 21:17:55.242      480.24817966    
17 May 2026 22:50:53.000    17 May 2026 22:59:21.728      508.72770420    
18 May 2026 00:33:57.145    18 May 2026 00:40:24.458      387.31387120    
18 May 2026 02:16:12.620    18 May 2026 02:22:57.466      404.84560321    
18 May 2026 03:57:10.574    18 May 2026 04:05:49.193      518.61903495    
18 May 2026 05:38:59.805    18 May 2026 05:46:04.499      424.69373943    
18 May 2026 21:17:46.652    18 May 2026 21:26:30.992      524.34014120    
18 May 2026 22:59:41.890    18 May 2026 23:07:34.907      473.01717005    
19 May 2026 00:42:49.787    19 May 2026 00:48:57.627      367.84008325    
19 May 2026 02:24:30.345    19 May 2026 02:31:56.591      446.24652781    
19 May 2026 04:05:28.802    19 May 2026 04:14:15.235      526.43294411    
19 May 2026 05:48:37.759    19 May 2026 05:52:38.983      241.22436990    
19 May 2026 19:46:35.977    19 May 2026 19:52:31.985      356.00754584    
19 May 2026 21:26:02.041    19 May 2026 21:34:53.552      531.51131629    
19 May 2026 23:08:39.004    19 May 2026 23:15:49.725      430.72008096    
20 May 2026 00:51:30.295    20 May 2026 00:57:43.686      373.39106746    
20 May 2026 02:32:43.761    20 May 2026 02:40:50.563      486.80151209    
20 May 2026 04:13:56.200    20 May 2026 04:22:20.674      504.47430995    
20 May 2026 19:53:45.099    20 May 2026 20:01:38.776      473.67676370    
20 May 2026 21:34:35.470    20 May 2026 21:43:09.136      513.66574382    
20 May 2026 23:17:37.937    20 May 2026 23:24:10.558      392.62045012    
21 May 2026 00:59:57.909    21 May 2026 01:06:39.553      401.64435039    
21 May 2026 02:40:57.049    21 May 2026 02:49:33.655      516.60661565    
21 May 2026 04:22:41.183    21 May 2026 04:29:57.876      436.69328678    
21 May 2026 20:01:33.087    21 May 2026 20:10:16.185      523.09732803    
21 May 2026 21:43:22.602    21 May 2026 21:51:22.010      479.40789083    
21 May 2026 23:26:31.247    21 May 2026 23:32:41.891      370.64345141    
22 May 2026 01:08:16.070    22 May 2026 01:15:38.341      442.27116873    
22 May 2026 02:49:14.149    22 May 2026 02:58:01.320      527.17078272    
22 May 2026 04:32:08.686    22 May 2026 04:36:43.006      274.31938847    
22 May 2026 18:30:32.207    22 May 2026 18:36:08.767      336.56041013    
22 May 2026 20:09:45.650    22 May 2026 20:18:39.456      533.80556902    
22 May 2026 21:52:18.577    22 May 2026 21:59:36.068      437.49109319    
22 May 2026 23:35:12.909    22 May 2026 23:41:26.067      373.15759929    
23 May 2026 01:16:29.389    23 May 2026 01:24:32.753      483.36415583    
23 May 2026 02:57:39.739    23 May 2026 03:06:09.016      509.27639049    
23 May 2026 18:37:34.438    23 May 2026 18:45:20.598      466.15989734    
23 May 2026 20:18:16.777    23 May 2026 20:26:55.226      518.44928853    
23 May 2026 22:01:17.200    23 May 2026 22:07:55.628      398.42832447    
23 May 2026 23:43:41.558    23 May 2026 23:50:20.633      399.07520979    
24 May 2026 01:24:42.117    24 May 2026 01:33:16.908      514.79181867    
24 May 2026 03:06:21.564    24 May 2026 03:13:49.751      448.18687197    
24 May 2026 18:45:18.609    24 May 2026 18:53:59.865      521.25642729    
24 May 2026 20:27:02.102    24 May 2026 20:35:07.873      485.77173430    
24 May 2026 22:10:11.099    24 May 2026 22:16:25.208      374.10880207    
24 May 2026 23:52:00.268    24 May 2026 23:59:19.004      438.73617105    
25 May 2026 01:32:58.185    25 May 2026 01:41:46.175      527.98915455    
25 May 2026 03:15:40.468    25 May 2026 03:20:43.763      303.29482161    
25 May 2026 17:14:28.764    25 May 2026 17:19:42.893      314.12837687    
25 May 2026 18:53:28.318    25 May 2026 19:02:23.987      535.66949065    
25 May 2026 20:35:56.899    25 May 2026 20:43:21.287      444.38790627    
25 May 2026 22:18:53.943    25 May 2026 22:25:07.540      373.59642115    
26 May 2026 00:00:13.623    26 May 2026 00:08:13.828      480.20544138    
26 May 2026 01:41:22.116    26 May 2026 01:49:56.109      513.99373849    
26 May 2026 17:21:23.259    26 May 2026 17:29:00.744      457.48506415    
26 May 2026 19:01:57.138    26 May 2026 19:10:40.059      522.92068948    
26 May 2026 20:44:55.158    26 May 2026 20:51:39.704      404.54579814    
26 May 2026 22:27:23.735    26 May 2026 22:34:00.776      397.04092441    
27 May 2026 00:08:25.914    27 May 2026 00:16:59.041      513.12727580    
27 May 2026 01:50:01.047    27 May 2026 01:57:40.247      459.20026903    
27 May 2026 17:29:03.471    27 May 2026 17:37:42.126      518.65541639    
27 May 2026 19:10:40.640    27 May 2026 19:18:52.577      491.93692761    
27 May 2026 20:53:49.593    27 May 2026 21:00:07.638      378.04474023    
27 May 2026 22:35:43.123    27 May 2026 22:42:58.676      435.55230367    
28 May 2026 00:16:41.066    28 May 2026 00:25:29.902      528.83623336    
28 May 2026 01:59:12.688    28 May 2026 02:04:41.915      329.22686795    
28 May 2026 15:58:26.266    28 May 2026 16:03:14.068      287.80167459    
28 May 2026 17:37:10.272    28 May 2026 17:46:07.224      536.95149907    
28 May 2026 19:19:34.208    28 May 2026 19:27:05.432      451.22331697    
28 May 2026 21:02:33.607    28 May 2026 21:08:48.149      374.54222798    
28 May 2026 22:43:56.615    28 May 2026 22:51:53.854      477.23823414    
29 May 2026 00:25:03.452    29 May 2026 00:33:42.030      518.57711674    
29 May 2026 16:05:11.794    29 May 2026 16:12:39.227      447.43222157    
29 May 2026 17:45:36.744    29 May 2026 17:54:23.671      526.92737823    
29 May 2026 19:28:32.017    29 May 2026 19:35:22.787      410.77069743    
29 May 2026 21:11:04.595    29 May 2026 21:17:39.996      395.40131728    
29 May 2026 22:52:08.553    29 May 2026 23:00:40.079      511.52626859    
30 May 2026 00:33:39.698    30 May 2026 00:41:29.414      469.71635657    
30 May 2026 16:12:47.839    30 May 2026 16:21:22.981      515.14239921    
30 May 2026 17:54:18.377    30 May 2026 18:02:36.122      497.74430911    
30 May 2026 19:37:26.896    30 May 2026 19:43:49.144      382.24851791    
30 May 2026 21:19:24.743    30 May 2026 21:26:37.339      432.59543006    
30 May 2026 23:00:22.865    30 May 2026 23:09:12.493      529.62767727    
31 May 2026 00:42:45.062    31 May 2026 00:48:37.796      352.73413175    


Number of events : 182


Observer: Puerto Montt, -41.45438, 287.05317
Start Time (UTC)            Stop Time (UTC)               Duration (s)         
02 May 2026 03:27:27.731    02 May 2026 03:27:52.831      25.100350427    
02 May 2026 05:03:59.714    02 May 2026 05:12:24.858      505.14425546    
02 May 2026 06:45:04.733    02 May 2026 06:53:49.472      524.73862369    
02 May 2026 08:26:44.027    02 May 2026 08:35:25.646      521.61845259    
02 May 2026 10:08:06.024    02 May 2026 10:16:52.272      526.24749953    
02 May 2026 11:50:23.637    02 May 2026 11:56:04.002      340.36530582    
03 May 2026 03:32:47.973    03 May 2026 03:38:40.701      352.72818259    
03 May 2026 05:12:08.722    03 May 2026 05:20:52.867      524.14543672    
03 May 2026 06:53:36.363    03 May 2026 07:02:16.190      519.82610130    
03 May 2026 08:35:10.363    03 May 2026 08:43:57.057      526.69335937    
03 May 2026 10:16:34.649    03 May 2026 10:24:59.288      504.63954743    
04 May 2026 03:40:06.609    04 May 2026 03:47:39.154      452.54530613    
04 May 2026 05:20:29.343    04 May 2026 05:29:17.414      528.07131596    
04 May 2026 07:02:07.734    04 May 2026 07:10:45.504      517.76921432    
04 May 2026 08:43:34.693    04 May 2026 08:52:24.815      530.12137651    
04 May 2026 10:25:12.340    04 May 2026 10:32:47.687      455.34679906    
05 May 2026 03:47:55.301    05 May 2026 03:56:16.680      501.37874738    
05 May 2026 05:28:57.117    05 May 2026 05:37:41.672      524.55536302    
05 May 2026 07:10:36.829    05 May 2026 07:19:16.757      519.92827178    
05 May 2026 08:51:59.049    05 May 2026 09:00:45.035      525.98559220    
05 May 2026 10:34:10.742    05 May 2026 10:40:05.649      354.90664027    
06 May 2026 02:16:50.646    06 May 2026 02:22:26.895      336.24896418    
06 May 2026 03:56:02.244    06 May 2026 04:04:44.894      522.65002577    
06 May 2026 05:37:28.163    06 May 2026 05:46:07.659      519.49591676    
06 May 2026 07:19:03.023    06 May 2026 07:27:47.908      524.88526687    
06 May 2026 09:00:26.623    06 May 2026 09:08:53.261      506.63712103    
06 May 2026 10:44:56.701    06 May 2026 10:45:26.494      29.793531192    
07 May 2026 02:24:03.971    07 May 2026 02:31:28.743      444.77219777    
07 May 2026 04:04:21.359    07 May 2026 04:13:09.196      527.83665871    
07 May 2026 05:45:59.253    07 May 2026 05:54:36.227      516.97380776    
07 May 2026 07:27:27.052    07 May 2026 07:36:15.810      528.75877954    
07 May 2026 09:09:02.511    07 May 2026 09:16:43.677      461.16614866    
08 May 2026 02:31:49.641    08 May 2026 02:40:07.381      497.74019590    
08 May 2026 04:12:48.100    08 May 2026 04:21:32.914      524.81375939    
08 May 2026 05:54:28.226    08 May 2026 06:03:06.883      518.65686761    
08 May 2026 07:35:50.831    08 May 2026 07:44:36.641      525.80997079    
08 May 2026 09:17:57.207    08 May 2026 09:24:05.574      368.36721150    
09 May 2026 01:00:52.701    09 May 2026 01:06:11.289      318.58796217    
09 May 2026 02:39:54.444    09 May 2026 02:48:35.866      521.42210357    
09 May 2026 04:21:18.522    09 May 2026 04:29:58.183      519.66090436    
09 May 2026 06:02:54.295    09 May 2026 06:11:37.731      523.43633808    
09 May 2026 07:44:17.408    09 May 2026 07:52:46.018      508.61039883    
09 May 2026 09:28:01.232    09 May 2026 09:30:08.561      127.32863382    
10 May 2026 01:08:00.217    10 May 2026 01:15:17.035      436.81842315    
10 May 2026 02:48:11.995    10 May 2026 02:56:59.970      527.97480861    
10 May 2026 04:29:49.310    10 May 2026 04:38:26.002      516.69238106    
10 May 2026 06:11:18.056    10 May 2026 06:20:05.735      527.67849629    
10 May 2026 07:52:51.591    10 May 2026 08:00:38.365      466.77392948    
11 May 2026 01:15:42.726    11 May 2026 01:23:56.917      494.19179085    
11 May 2026 02:56:37.649    11 May 2026 03:05:23.179      525.53005095    
11 May 2026 04:38:18.160    11 May 2026 04:46:56.038      517.87819677    
11 May 2026 06:19:41.299    11 May 2026 06:28:27.128      525.82843340    
11 May 2026 08:01:42.883    11 May 2026 08:08:03.906      381.02297889    
11 May 2026 23:44:54.290    11 May 2026 23:49:53.685      299.39488959    
12 May 2026 01:23:45.309    12 May 2026 01:32:25.740      520.43124443    
12 May 2026 03:05:07.403    12 May 2026 03:13:47.748      520.34463444    
12 May 2026 04:46:44.118    12 May 2026 04:55:26.543      522.42547082    
12 May 2026 06:28:06.929    12 May 2026 06:36:37.599      510.66982113    
12 May 2026 08:11:28.763    12 May 2026 08:14:25.251      176.48779216    
12 May 2026 23:51:55.357    12 May 2026 23:59:03.936      428.57952918    
13 May 2026 01:32:01.218    13 May 2026 01:40:49.677      528.45849545    
13 May 2026 03:13:37.844    13 May 2026 03:22:14.799      516.95541901    
13 May 2026 04:55:07.621    13 May 2026 05:03:54.581      526.95947484    
13 May 2026 06:36:39.476    13 May 2026 06:44:31.770      472.29395304    
13 May 2026 23:59:34.527    14 May 2026 00:07:45.183      490.65585178    
14 May 2026 01:40:25.703    14 May 2026 01:49:12.384      526.68066896    
14 May 2026 03:22:06.535    14 May 2026 03:30:44.165      517.62948276    
14 May 2026 05:03:30.339    14 May 2026 05:12:16.459      526.11970904    
14 May 2026 06:45:27.590    14 May 2026 06:52:00.678      393.08817729    
14 May 2026 22:28:55.580    14 May 2026 22:33:33.722      278.14237839    
15 May 2026 00:07:34.772    15 May 2026 00:16:14.380      519.60746124    
15 May 2026 01:48:54.706    15 May 2026 01:57:36.234      521.52891657    
15 May 2026 03:30:32.359    15 May 2026 03:39:14.253      521.89399707    
15 May 2026 05:11:55.037    15 May 2026 05:20:27.934      512.89739152    
15 May 2026 06:55:00.818    15 May 2026 06:58:34.830      214.01193074    
15 May 2026 22:35:49.362    15 May 2026 22:42:49.265      419.90284306    
16 May 2026 00:15:48.953    16 May 2026 00:24:38.175      529.22276314    
16 May 2026 01:57:24.748    16 May 2026 02:06:02.502      517.75314873    
16 May 2026 03:38:55.616    16 May 2026 03:47:42.263      526.64682346    
16 May 2026 05:20:26.015    16 May 2026 05:28:23.835      477.81987106    
16 May 2026 22:43:25.018    16 May 2026 22:51:32.039      487.02048155    
17 May 2026 00:24:12.209    17 May 2026 00:33:00.413      528.20487111    
17 May 2026 02:05:53.270    17 May 2026 02:14:31.178      517.90884091    
17 May 2026 03:47:17.847    17 May 2026 03:56:04.577      526.73039743    
17 May 2026 05:29:11.174    17 May 2026 05:35:55.897      404.72239929    
17 May 2026 21:12:56.928    17 May 2026 21:17:10.986      254.05839742    
17 May 2026 22:51:22.852    17 May 2026 23:00:01.704      518.85147435    
18 May 2026 00:32:40.426    18 May 2026 00:41:23.585      523.15894162    
18 May 2026 02:14:18.986    18 May 2026 02:23:00.833      521.84673257    
18 May 2026 03:55:41.681    18 May 2026 04:04:17.021      515.34000457    
18 May 2026 05:38:34.591    18 May 2026 05:42:40.058      245.46719195    
18 May 2026 21:19:42.339    18 May 2026 21:26:32.940      410.60094000    
18 May 2026 22:59:35.254    18 May 2026 23:08:25.426      530.17185275    
19 May 2026 00:41:10.053    19 May 2026 00:49:49.090      519.03719490    
19 May 2026 02:22:42.039    19 May 2026 02:31:28.787      526.74802551    
19 May 2026 04:04:11.186    19 May 2026 04:12:14.590      483.40436696    
19 May 2026 21:27:14.301    19 May 2026 21:35:17.446      483.14542368    
19 May 2026 23:07:57.236    19 May 2026 23:16:47.245      530.00849333    
20 May 2026 00:49:38.401    20 May 2026 00:58:17.076      518.67470724    
20 May 2026 02:31:03.832    20 May 2026 02:39:51.500      527.66794797    
20 May 2026 04:12:53.601    20 May 2026 04:19:49.623      416.02275919    
20 May 2026 19:56:58.983    20 May 2026 20:00:44.895      225.91211483    
20 May 2026 21:35:09.644    20 May 2026 21:43:47.678      518.03401562    
20 May 2026 23:16:24.633    20 May 2026 23:25:09.777      525.14395524    
21 May 2026 00:58:04.034    21 May 2026 01:06:46.283      522.24850097    
21 May 2026 02:39:26.872    21 May 2026 02:48:04.878      518.00607465    
21 May 2026 04:22:08.998    21 May 2026 04:26:42.053      273.05456620    
21 May 2026 20:03:34.456    21 May 2026 20:10:14.895      400.43898420    
21 May 2026 21:43:20.230    21 May 2026 21:52:11.409      531.17922790    
21 May 2026 23:24:53.835    21 May 2026 23:33:34.556      520.72105282    
22 May 2026 01:06:26.935    22 May 2026 01:15:14.165      527.23020801    
22 May 2026 02:47:55.008    22 May 2026 02:56:04.065      489.05686378    
22 May 2026 20:11:02.516    22 May 2026 20:19:01.380      478.86395110    
22 May 2026 21:51:40.900    22 May 2026 22:00:32.868      531.96865042    
22 May 2026 23:33:22.015    22 May 2026 23:42:01.864      519.84912157    
23 May 2026 01:14:48.351    23 May 2026 01:23:37.253      528.90183443    
23 May 2026 02:56:34.888    23 May 2026 03:03:41.918      427.02986354    
23 May 2026 18:41:02.911    23 May 2026 18:44:14.450      191.53846018    
23 May 2026 20:18:55.295    23 May 2026 20:27:32.301      517.00532004    
23 May 2026 22:00:07.451    23 May 2026 22:08:54.814      527.36261117    
23 May 2026 23:41:47.593    23 May 2026 23:50:30.619      523.02603334    
24 May 2026 01:23:10.671    24 May 2026 01:31:51.534      520.86247449    
24 May 2026 03:05:43.532    24 May 2026 03:10:41.402      297.87012324    
24 May 2026 18:47:25.917    24 May 2026 18:53:55.071      389.15378717    
24 May 2026 20:27:04.018    24 May 2026 20:35:56.121      532.10374637    
24 May 2026 22:08:36.211    24 May 2026 22:17:18.903      522.69165450    
24 May 2026 23:50:10.389    24 May 2026 23:58:58.416      528.02730657    
25 May 2026 01:31:37.545    25 May 2026 01:39:52.294      494.74867999    
25 May 2026 18:54:49.857    25 May 2026 19:02:43.857      474.00012338    
25 May 2026 20:35:23.368    25 May 2026 20:44:17.313      533.94516228    
25 May 2026 22:17:04.253    25 May 2026 22:25:45.577      521.32402430    
25 May 2026 23:58:31.519    26 May 2026 00:07:21.886      530.36697905    
26 May 2026 01:40:15.116    26 May 2026 01:47:32.854      437.73746017    
26 May 2026 17:25:11.234    26 May 2026 17:27:37.404      146.16993866    
26 May 2026 19:02:40.019    26 May 2026 19:11:15.630      515.61067959    
26 May 2026 20:43:49.078    26 May 2026 20:52:38.755      529.67753147    
26 May 2026 22:25:29.832    26 May 2026 22:34:13.911      524.07898289    
27 May 2026 00:06:53.225    27 May 2026 00:15:37.071      523.84532079    
27 May 2026 01:49:17.998    27 May 2026 01:54:38.522      320.52423492    
27 May 2026 17:31:17.036    27 May 2026 17:37:33.490      376.45399875    
27 May 2026 19:10:46.855    27 May 2026 19:19:39.648      532.79359691    
27 May 2026 20:52:17.402    27 May 2026 21:01:02.214      524.81163929    
27 May 2026 22:33:52.591    27 May 2026 22:42:41.631      529.04038068    
28 May 2026 00:15:18.961    28 May 2026 00:23:39.374      500.41324014    
28 May 2026 17:38:36.566    28 May 2026 17:46:24.939      468.37252710    
28 May 2026 19:19:04.857    28 May 2026 19:28:00.644      535.78720243    
28 May 2026 21:00:45.311    28 May 2026 21:09:28.278      522.96686674    
28 May 2026 22:42:13.496    28 May 2026 22:51:05.461      531.96563388    
29 May 2026 00:23:54.412    29 May 2026 00:31:22.510      448.09826855    
29 May 2026 16:09:33.791    29 May 2026 16:10:44.160      70.368710929    
29 May 2026 17:46:24.007    29 May 2026 17:54:57.699      513.69235050    
29 May 2026 19:27:29.689    29 May 2026 19:36:21.627      531.93814993    
29 May 2026 21:09:10.903    29 May 2026 21:17:56.182      525.27907823    
29 May 2026 22:50:34.655    29 May 2026 22:59:21.512      526.85731411    
30 May 2026 00:32:52.281    30 May 2026 00:38:33.650      341.36869916    
30 May 2026 16:15:08.068    30 May 2026 16:21:10.077      362.00811239    
30 May 2026 17:54:28.895    30 May 2026 18:03:21.995      533.09930116    
30 May 2026 19:35:57.548    30 May 2026 19:44:44.481      526.93321675    
30 May 2026 21:17:33.651    30 May 2026 21:26:23.798      530.14692297    
30 May 2026 22:58:59.338    30 May 2026 23:07:25.295      505.95685320    


Number of events : 160


Observer: GroundStation5
Start Time (UTC)            Stop Time (UTC)               Duration (s)         
02 May 2026 05:09:17.248    02 May 2026 05:12:27.899      190.65093419    
02 May 2026 06:47:48.557    02 May 2026 06:54:22.846      394.28880131    
02 May 2026 08:28:16.520    02 May 2026 08:34:40.819      384.29890440    
02 May 2026 10:11:10.277    02 May 2026 10:12:06.186      55.909715476    
03 May 2026 05:16:20.905    03 May 2026 05:21:25.185      304.28002799    
03 May 2026 06:55:49.026    03 May 2026 07:02:34.525      405.49867752    
03 May 2026 08:36:39.957    03 May 2026 08:42:25.745      345.78819873    
04 May 2026 05:23:55.486    04 May 2026 05:29:56.307      360.82100199    
04 May 2026 07:03:56.523    04 May 2026 07:10:39.372      402.84940854    
04 May 2026 08:45:17.593    04 May 2026 08:49:51.877      274.28443751    
05 May 2026 03:53:24.204    05 May 2026 03:56:12.184      167.98051866    
05 May 2026 05:31:44.994    05 May 2026 05:38:15.963      390.96901099    
05 May 2026 07:12:10.542    05 May 2026 07:18:36.267      385.72465167    
05 May 2026 08:54:42.266    05 May 2026 08:56:25.158      102.89130157    
06 May 2026 04:00:20.606    06 May 2026 04:05:15.236      294.63059582    
06 May 2026 05:39:44.115    06 May 2026 05:46:27.991      403.87679623    
06 May 2026 07:20:32.496    06 May 2026 07:26:22.238      349.74185644    
07 May 2026 04:07:52.405    07 May 2026 04:13:47.788      355.38252722    
07 May 2026 05:47:50.433    07 May 2026 05:54:33.202      402.76983777    
07 May 2026 07:29:07.648    07 May 2026 07:33:50.574      282.92576813    
08 May 2026 02:37:31.672    08 May 2026 02:39:53.617      141.94493612    
08 May 2026 04:15:40.113    08 May 2026 04:22:08.052      387.93824608    
08 May 2026 05:56:03.263    08 May 2026 06:02:30.661      387.39781575    
08 May 2026 07:38:20.929    08 May 2026 07:40:35.102      134.17366088    
09 May 2026 02:44:19.157    09 May 2026 02:49:04.079      284.92150482    
09 May 2026 04:23:37.854    09 May 2026 04:30:20.440      402.58567437    
09 May 2026 06:04:23.757    09 May 2026 06:10:17.635      353.87770864    
10 May 2026 02:51:48.021    10 May 2026 02:57:38.200      350.17818825    
10 May 2026 04:31:42.980    10 May 2026 04:38:26.014      403.03335381    
10 May 2026 06:12:56.547    10 May 2026 06:17:48.045      291.49779623    
11 May 2026 01:21:40.847    11 May 2026 01:23:30.953      110.10595484    
11 May 2026 02:59:33.871    11 May 2026 03:05:59.109      385.23828210    
11 May 2026 04:39:54.619    11 May 2026 04:46:24.018      389.39882959    
11 May 2026 06:22:01.342    11 May 2026 06:24:40.905      159.56335701    
12 May 2026 01:28:16.549    12 May 2026 01:32:51.671      275.12211527    
12 May 2026 03:07:30.199    12 May 2026 03:14:11.865      401.66619730    
12 May 2026 04:48:13.675    12 May 2026 04:54:11.957      358.28164082    
13 May 2026 01:35:42.290    13 May 2026 01:41:27.493      345.20298138    
13 May 2026 03:15:34.100    13 May 2026 03:22:17.778      403.67880457    
13 May 2026 04:56:44.187    13 May 2026 05:01:44.301      300.11443564    
14 May 2026 00:05:55.905    14 May 2026 00:06:59.876      63.971014414    
14 May 2026 01:43:26.195    14 May 2026 01:49:49.060      382.86551347    
14 May 2026 03:23:44.517    14 May 2026 03:30:16.283      391.76604763    
14 May 2026 05:05:42.098    14 May 2026 05:08:43.824      181.72657541    
15 May 2026 00:12:12.725    15 May 2026 00:16:37.857      265.13197948    
15 May 2026 01:51:21.043    15 May 2026 01:58:02.157      401.11457430    
15 May 2026 03:32:02.118    15 May 2026 03:38:05.112      362.99356583    
16 May 2026 00:19:35.130    16 May 2026 00:25:15.533      340.40292600    
16 May 2026 01:59:23.682    16 May 2026 02:06:08.386      404.70398508    
16 May 2026 03:40:30.429    16 May 2026 03:45:39.265      308.83584183    
17 May 2026 00:27:17.022    17 May 2026 00:33:37.797      380.77479388    
17 May 2026 02:07:32.875    17 May 2026 02:14:07.372      394.49734285    
17 May 2026 03:49:22.531    17 May 2026 03:52:44.363      201.83178659    
17 May 2026 22:56:07.733    17 May 2026 23:00:22.523      254.78952370    
18 May 2026 00:35:10.374    18 May 2026 00:41:51.263      400.88909460    
18 May 2026 02:15:49.058    18 May 2026 02:21:57.069      368.01048503    
18 May 2026 23:03:26.593    18 May 2026 23:09:02.274      335.68135070    
19 May 2026 00:43:11.752    19 May 2026 00:49:57.818      406.06574218    
19 May 2026 02:24:15.276    19 May 2026 02:29:32.940      317.66476636    
19 May 2026 23:11:06.419    19 May 2026 23:17:25.297      378.87763119    
20 May 2026 00:51:19.733    20 May 2026 00:57:57.277      397.54467972    
20 May 2026 02:33:02.366    20 May 2026 02:36:42.824      220.45796203    
20 May 2026 21:40:01.723    20 May 2026 21:44:05.567      243.84339990    
20 May 2026 23:18:58.256    20 May 2026 23:25:39.158      400.90181330    
21 May 2026 00:59:34.539    21 May 2026 01:05:47.817      373.27776183    
21 May 2026 21:47:16.796    21 May 2026 21:52:47.680      330.88433073    
21 May 2026 23:26:58.388    21 May 2026 23:33:46.061      407.67218967    
22 May 2026 01:07:58.783    22 May 2026 01:13:25.325      326.54198448    
22 May 2026 21:54:54.500    22 May 2026 22:01:11.540      377.03993402    
22 May 2026 23:35:05.181    22 May 2026 23:41:45.995      400.81371594    
23 May 2026 01:16:41.502    23 May 2026 01:20:39.388      237.88640992    
23 May 2026 20:23:54.938    23 May 2026 20:27:46.883      231.94538495    
23 May 2026 22:02:44.814    23 May 2026 22:09:25.838      401.02374831    
23 May 2026 23:43:18.663    23 May 2026 23:49:37.356      378.69324839    
24 May 2026 20:31:05.892    24 May 2026 20:36:31.716      325.82436207    
24 May 2026 22:10:43.708    24 May 2026 22:17:33.109      409.40119262    
24 May 2026 23:51:41.052    24 May 2026 23:57:16.421      335.36922707    
25 May 2026 20:38:41.436    25 May 2026 20:44:56.539      375.10291412    
25 May 2026 22:18:49.368    25 May 2026 22:25:33.549      404.18078208    
26 May 2026 00:00:19.957    26 May 2026 00:04:34.201      254.24441375    
26 May 2026 19:07:47.722    26 May 2026 19:11:26.379      218.65658218    
26 May 2026 20:46:30.244    26 May 2026 20:53:11.353      401.10859622    
26 May 2026 22:27:01.612    26 May 2026 22:33:25.744      384.13195229    
27 May 2026 19:14:54.144    27 May 2026 19:20:14.431      320.28682610    
27 May 2026 20:54:27.932    27 May 2026 21:01:19.038      411.10634299    
27 May 2026 22:35:22.286    27 May 2026 22:41:06.304      344.01756045    
28 May 2026 19:22:27.451    28 May 2026 19:28:40.339      372.88730806    
28 May 2026 21:02:32.492    28 May 2026 21:09:19.991      407.49852962    
28 May 2026 22:43:57.829    28 May 2026 22:48:27.391      269.56278206    
29 May 2026 17:51:40.479    29 May 2026 17:55:03.863      203.38487865    
29 May 2026 19:30:14.725    29 May 2026 19:36:55.714      400.98822119    
29 May 2026 21:10:43.545    29 May 2026 21:17:12.987      389.44219997    
29 May 2026 22:53:28.201    29 May 2026 22:54:47.855      79.654038884    
30 May 2026 17:58:41.745    30 May 2026 18:03:55.776      314.03108906    
30 May 2026 19:38:11.202    30 May 2026 19:45:03.826      412.62468304    
30 May 2026 21:19:02.609    30 May 2026 21:24:54.948      352.33923504    


Number of events : 96


Observer: GroundStation7
Start Time (UTC)            Stop Time (UTC)               Duration (s)         
02 May 2026 05:07:20.518    02 May 2026 05:12:05.477      284.95900682    
02 May 2026 06:46:18.933    02 May 2026 06:53:56.923      457.98999660    
02 May 2026 08:26:53.484    02 May 2026 08:34:43.698      470.21436231    
02 May 2026 10:08:17.828    02 May 2026 10:14:21.042      363.21365082    
03 May 2026 05:14:38.419    03 May 2026 05:20:54.817      376.39820483    
03 May 2026 06:54:23.439    03 May 2026 07:02:14.769      471.33024781    
03 May 2026 08:35:12.370    03 May 2026 08:42:46.405      454.03573948    
03 May 2026 10:17:14.201    03 May 2026 10:21:29.994      255.79369749    
04 May 2026 05:22:19.952    04 May 2026 05:29:26.480      426.52772603    
04 May 2026 07:02:33.450    04 May 2026 07:10:28.484      475.03362367    
04 May 2026 08:43:36.432    04 May 2026 08:50:39.845      423.41377598    
05 May 2026 03:51:23.642    05 May 2026 03:55:52.970      269.32793842    
05 May 2026 05:30:14.748    05 May 2026 05:37:49.620      454.87169728    
05 May 2026 07:10:47.579    05 May 2026 07:18:37.652      470.07339987    
05 May 2026 08:52:09.368    05 May 2026 08:58:18.885      369.51670046    
06 May 2026 03:58:36.988    06 May 2026 04:04:45.249      368.26140652    
06 May 2026 05:38:18.048    06 May 2026 05:46:07.528      469.47997464    
06 May 2026 07:19:05.567    06 May 2026 07:26:40.741      455.17415396    
06 May 2026 09:01:01.813    06 May 2026 09:05:31.721      269.90774630    
07 May 2026 04:06:16.099    07 May 2026 04:13:17.837      421.73813788    
07 May 2026 05:46:27.085    07 May 2026 05:54:21.271      474.18565942    
07 May 2026 07:27:28.511    07 May 2026 07:34:34.962      426.45139435    
08 May 2026 02:35:26.037    08 May 2026 02:39:38.845      252.80821718    
08 May 2026 04:14:09.242    08 May 2026 04:21:41.290      452.04781210    
08 May 2026 05:54:40.347    08 May 2026 06:02:30.570      470.22317934    
08 May 2026 07:35:59.755    08 May 2026 07:42:15.516      375.76099840    
09 May 2026 02:42:34.363    09 May 2026 02:48:34.510      360.14663555    
09 May 2026 04:22:11.300    09 May 2026 04:29:59.271      467.97037460    
09 May 2026 06:02:57.440    09 May 2026 06:10:34.016      456.57538825    
09 May 2026 07:44:48.627    09 May 2026 07:49:31.871      283.24387047    
10 May 2026 02:50:10.943    10 May 2026 02:57:08.121      417.17793611    
10 May 2026 04:30:19.346    10 May 2026 04:38:13.044      473.69828559    
10 May 2026 06:11:19.292    10 May 2026 06:18:28.985      429.69296516    
11 May 2026 01:19:27.801    11 May 2026 01:23:22.952      235.15165527    
11 May 2026 02:58:02.375    11 May 2026 03:05:31.920      449.54500117    
11 May 2026 04:38:31.733    11 May 2026 04:46:22.463      470.73061222    
11 May 2026 06:19:48.908    11 May 2026 06:26:10.979      382.07076477    
12 May 2026 01:26:30.535    12 May 2026 01:32:22.556      352.02071654    
12 May 2026 03:06:03.157    12 May 2026 03:13:49.987      466.82977905    
12 May 2026 04:46:47.934    12 May 2026 04:54:26.242      458.30881402    
12 May 2026 06:28:34.494    12 May 2026 06:33:30.553      296.05845753    
13 May 2026 01:34:04.446    13 May 2026 01:40:57.274      412.82877128    
13 May 2026 03:14:10.172    13 May 2026 03:22:03.772      473.60008028    
13 May 2026 04:55:08.693    13 May 2026 05:02:21.903      433.20977777    
13 May 2026 06:38:30.485    13 May 2026 06:39:32.281      61.796026840    
14 May 2026 00:03:29.075    14 May 2026 00:07:05.010      215.93468045    
14 May 2026 01:41:54.084    14 May 2026 01:49:21.432      447.34829587    
14 May 2026 03:22:21.646    14 May 2026 03:30:13.271      471.62532737    
14 May 2026 05:03:36.710    14 May 2026 05:10:05.238      388.52782496    
15 May 2026 00:10:25.444    15 May 2026 00:16:09.238      343.79471163    
15 May 2026 01:49:53.517    15 May 2026 01:57:39.562      466.04516061    
15 May 2026 03:30:36.920    15 May 2026 03:38:17.325      460.40514802    
15 May 2026 05:12:19.217    15 May 2026 05:17:27.743      308.52650717    
16 May 2026 00:17:56.530    16 May 2026 00:24:45.159      408.62886541    
16 May 2026 01:57:59.457    16 May 2026 02:05:53.339      473.88150541    
16 May 2026 03:38:56.589    16 May 2026 03:46:13.625      437.03624691    
16 May 2026 05:21:51.804    16 May 2026 05:23:52.845      121.04044656    
16 May 2026 22:47:30.120    16 May 2026 22:50:44.590      194.46928315    
17 May 2026 00:25:44.309    17 May 2026 00:33:09.714      445.40480693    
17 May 2026 02:06:10.006    17 May 2026 02:14:02.906      472.90010891    
17 May 2026 03:47:23.060    17 May 2026 03:53:58.234      395.17355656    
17 May 2026 22:54:19.124    17 May 2026 22:59:54.460      335.33596464    
18 May 2026 00:33:42.371    18 May 2026 00:41:27.939      465.56875032    
18 May 2026 02:14:24.372    18 May 2026 02:22:07.231      462.85865544    
18 May 2026 03:56:02.717    18 May 2026 04:01:23.465      320.74816343    
18 May 2026 23:01:47.252    18 May 2026 23:08:31.732      404.48042433    
19 May 2026 00:41:47.230    19 May 2026 00:49:41.726      474.49616210    
19 May 2026 02:22:42.985    19 May 2026 02:30:04.151      441.16528400    
19 May 2026 04:05:22.027    19 May 2026 04:08:01.840      159.81261103    
19 May 2026 21:31:31.549    19 May 2026 21:34:21.135      169.58630512    
19 May 2026 23:09:33.119    19 May 2026 23:16:56.743      443.62423641    
20 May 2026 00:49:56.855    20 May 2026 00:57:51.363      474.50774107    
20 May 2026 02:31:07.977    20 May 2026 02:37:49.977      401.99990664    
20 May 2026 21:38:11.697    20 May 2026 21:43:38.150      326.45329305    
20 May 2026 23:17:29.785    20 May 2026 23:25:15.098      465.31266201    
21 May 2026 00:58:10.332    21 May 2026 01:05:55.953      465.62044455    
21 May 2026 02:39:44.997    21 May 2026 02:45:17.750      332.75377373    
21 May 2026 21:45:36.723    21 May 2026 21:52:16.963      400.23996157    
21 May 2026 23:25:33.569    21 May 2026 23:33:28.924      475.35553935    
22 May 2026 01:06:27.938    22 May 2026 01:13:53.481      445.54286348    
22 May 2026 02:48:54.726    22 May 2026 02:52:05.742      191.01560859    
22 May 2026 20:15:34.556    22 May 2026 20:17:53.559      139.00273220    
22 May 2026 21:53:20.627    22 May 2026 22:00:42.505      441.87859705    
22 May 2026 23:33:42.281    22 May 2026 23:41:38.642      476.36136051    
23 May 2026 01:14:51.529    23 May 2026 01:21:40.480      408.95093638    
23 May 2026 20:22:03.355    23 May 2026 20:27:20.257      316.90230758    
23 May 2026 22:01:15.883    23 May 2026 22:09:01.037      465.15414440    
23 May 2026 23:41:54.898    23 May 2026 23:49:43.499      468.60123173    
24 May 2026 01:23:26.117    24 May 2026 01:29:10.627      344.51021708    
24 May 2026 20:29:25.090    24 May 2026 20:36:00.829      395.73953933    
24 May 2026 22:09:18.589    24 May 2026 22:17:14.933      476.34465904    
24 May 2026 23:50:11.544    24 May 2026 23:57:41.626      450.08150971    
25 May 2026 01:32:28.350    25 May 2026 01:36:06.201      217.85115410    
25 May 2026 18:59:42.187    25 May 2026 19:01:19.015      96.828019107    
25 May 2026 20:37:07.001    25 May 2026 20:44:27.021      440.01992899    
25 May 2026 22:17:26.429    25 May 2026 22:25:24.776      478.34722248    
25 May 2026 23:58:33.845    26 May 2026 00:05:29.781      415.93660967    
26 May 2026 19:05:54.367    26 May 2026 19:11:00.771      306.40416214    
26 May 2026 20:45:00.858    26 May 2026 20:52:45.813      464.95554862    
26 May 2026 22:25:38.246    26 May 2026 22:33:29.935      471.68934928    
27 May 2026 00:07:06.226    27 May 2026 00:13:02.176      355.95028466    
27 May 2026 19:13:12.604    27 May 2026 19:19:43.397      390.79281815    
27 May 2026 20:53:02.508    27 May 2026 21:00:59.834      477.32664646    
27 May 2026 22:33:54.003    27 May 2026 22:41:28.667      454.66440234    
28 May 2026 00:16:02.370    28 May 2026 00:20:04.013      241.64383899    
28 May 2026 19:20:52.462    28 May 2026 19:28:10.347      437.88468672    
28 May 2026 21:01:09.494    28 May 2026 21:09:09.823      480.32970299    
28 May 2026 22:42:15.097    28 May 2026 22:49:17.935      422.83731467    
29 May 2026 17:49:45.009    29 May 2026 17:54:39.636      294.62668661    
29 May 2026 19:28:44.887    29 May 2026 19:36:29.448      464.56155432    
29 May 2026 21:09:20.529    29 May 2026 21:17:15.277      474.74779993    
29 May 2026 22:50:45.450    29 May 2026 22:56:52.423      366.97312362    
30 May 2026 17:56:59.442    30 May 2026 18:03:24.640      385.19886275    
30 May 2026 19:36:45.464    30 May 2026 19:44:43.615      478.15110952    
30 May 2026 21:17:35.432    30 May 2026 21:25:14.587      459.15480527    
30 May 2026 22:59:36.494    30 May 2026 23:03:59.546      263.05204269    


Number of events : 116


