october_scenarios/puerto montt.txt

Observer: Puerto Montt, -41.45438, 287.05317
Start Time (UTC)            Stop Time (UTC)               Duration (s)         
02 May 2026 03:27:27.731    02 May 2026 03:27:52.831      25.100350427    
02 May 2026 05:03:59.714    02 May 2026 05:12:24.858      505.14425546    
02 May 2026 06:45:04.733    02 May 2026 06:53:49.472      524.73862369    
02 May 2026 08:26:44.027    02 May 2026 08:35:25.646      521.61845259    
02 May 2026 10:08:06.024    02 May 2026 10:16:52.272      526.24749953    
02 May 2026 11:50:23.637    02 May 2026 11:56:04.002      340.36530582    
03 May 2026 03:32:47.973    03 May 2026 03:38:40.701      352.72818259    
03 May 2026 05:12:08.722    03 May 2026 05:20:52.867      524.14543672    
03 May 2026 06:53:36.363    03 May 2026 07:02:16.190      519.82610130    
03 May 2026 08:35:10.363    03 May 2026 08:43:57.057      526.69335937    
03 May 2026 10:16:34.649    03 May 2026 10:24:59.288      504.63954743    
04 May 2026 03:40:06.609    04 May 2026 03:47:39.154      452.54530613    
04 May 2026 05:20:29.343    04 May 2026 05:29:17.414      528.07131596    
04 May 2026 07:02:07.734    04 May 2026 07:10:45.504      517.76921432    
04 May 2026 08:43:34.693    04 May 2026 08:52:24.815      530.12137651    
04 May 2026 10:25:12.340    04 May 2026 10:32:47.687      455.34679906    
05 May 2026 03:47:55.301    05 May 2026 03:56:16.680      501.37874738    
05 May 2026 05:28:57.117    05 May 2026 05:37:41.672      524.55536302    
05 May 2026 07:10:36.829    05 May 2026 07:19:16.757      519.92827178    
05 May 2026 08:51:59.049    05 May 2026 09:00:45.035      525.98559220    
05 May 2026 10:34:10.742    05 May 2026 10:40:05.649      354.90664027    
06 May 2026 02:16:50.646    06 May 2026 02:22:26.895      336.24896418    
06 May 2026 03:56:02.244    06 May 2026 04:04:44.894      522.65002577    
06 May 2026 05:37:28.163    06 May 2026 05:46:07.659      519.49591676    
06 May 2026 07:19:03.023    06 May 2026 07:27:47.908      524.88526687    
06 May 2026 09:00:26.623    06 May 2026 09:08:53.261      506.63712103    
06 May 2026 10:44:56.701    06 May 2026 10:45:26.494      29.793531192    
07 May 2026 02:24:03.971    07 May 2026 02:31:28.743      444.77219777    
07 May 2026 04:04:21.359    07 May 2026 04:13:09.196      527.83665871    
07 May 2026 05:45:59.253    07 May 2026 05:54:36.227      516.97380776    
07 May 2026 07:27:27.052    07 May 2026 07:36:15.810      528.75877954    
07 May 2026 09:09:02.511    07 May 2026 09:16:43.677      461.16614866    
08 May 2026 02:31:49.641    08 May 2026 02:40:07.381      497.74019590    
08 May 2026 04:12:48.100    08 May 2026 04:21:32.914      524.81375939    
08 May 2026 05:54:28.226    08 May 2026 06:03:06.883      518.65686761    
08 May 2026 07:35:50.831    08 May 2026 07:44:36.641      525.80997079    
08 May 2026 09:17:57.207    08 May 2026 09:24:05.574      368.36721150    
09 May 2026 01:00:52.701    09 May 2026 01:06:11.289      318.58796217    
09 May 2026 02:39:54.444    09 May 2026 02:48:35.866      521.42210357    
09 May 2026 04:21:18.522    09 May 2026 04:29:58.183      519.66090436    
09 May 2026 06:02:54.295    09 May 2026 06:11:37.731      523.43633808    
09 May 2026 07:44:17.408    09 May 2026 07:52:46.018      508.61039883    
09 May 2026 09:28:01.232    09 May 2026 09:30:08.561      127.32863382    
10 May 2026 01:08:00.217    10 May 2026 01:15:17.035      436.81842315    
10 May 2026 02:48:11.995    10 May 2026 02:56:59.970      527.97480861    
10 May 2026 04:29:49.310    10 May 2026 04:38:26.002      516.69238106    
10 May 2026 06:11:18.056    10 May 2026 06:20:05.735      527.67849629    
10 May 2026 07:52:51.591    10 May 2026 08:00:38.365      466.77392948    
11 May 2026 01:15:42.726    11 May 2026 01:23:56.917      494.19179085    
11 May 2026 02:56:37.649    11 May 2026 03:05:23.179      525.53005095    
11 May 2026 04:38:18.160    11 May 2026 04:46:56.038      517.87819677    
11 May 2026 06:19:41.299    11 May 2026 06:28:27.128      525.82843340    
11 May 2026 08:01:42.883    11 May 2026 08:08:03.906      381.02297889    
11 May 2026 23:44:54.290    11 May 2026 23:49:53.685      299.39488959    
12 May 2026 01:23:45.309    12 May 2026 01:32:25.740      520.43124443    
12 May 2026 03:05:07.403    12 May 2026 03:13:47.748      520.34463444    
12 May 2026 04:46:44.118    12 May 2026 04:55:26.543      522.42547082    
12 May 2026 06:28:06.929    12 May 2026 06:36:37.599      510.66982113    
12 May 2026 08:11:28.763    12 May 2026 08:14:25.251      176.48779216    
12 May 2026 23:51:55.357    12 May 2026 23:59:03.936      428.57952918    
13 May 2026 01:32:01.218    13 May 2026 01:40:49.677      528.45849545    
13 May 2026 03:13:37.844    13 May 2026 03:22:14.799      516.95541901    
13 May 2026 04:55:07.621    13 May 2026 05:03:54.581      526.95947484    
13 May 2026 06:36:39.476    13 May 2026 06:44:31.770      472.29395304    
13 May 2026 23:59:34.527    14 May 2026 00:07:45.183      490.65585178    
14 May 2026 01:40:25.703    14 May 2026 01:49:12.384      526.68066896    
14 May 2026 03:22:06.535    14 May 2026 03:30:44.165      517.62948276    
14 May 2026 05:03:30.339    14 May 2026 05:12:16.459      526.11970904    
14 May 2026 06:45:27.590    14 May 2026 06:52:00.678      393.08817729    
14 May 2026 22:28:55.580    14 May 2026 22:33:33.722      278.14237839    
15 May 2026 00:07:34.772    15 May 2026 00:16:14.380      519.60746124    
15 May 2026 01:48:54.706    15 May 2026 01:57:36.234      521.52891657    
15 May 2026 03:30:32.359    15 May 2026 03:39:14.253      521.89399707    
15 May 2026 05:11:55.037    15 May 2026 05:20:27.934      512.89739152    
15 May 2026 06:55:00.818    15 May 2026 06:58:34.830      214.01193074    
15 May 2026 22:35:49.362    15 May 2026 22:42:49.265      419.90284306    
16 May 2026 00:15:48.953    16 May 2026 00:24:38.175      529.22276314    
16 May 2026 01:57:24.748    16 May 2026 02:06:02.502      517.75314873    
16 May 2026 03:38:55.616    16 May 2026 03:47:42.263      526.64682346    
16 May 2026 05:20:26.015    16 May 2026 05:28:23.835      477.81987106    
16 May 2026 22:43:25.018    16 May 2026 22:51:32.039      487.02048155    
17 May 2026 00:24:12.209    17 May 2026 00:33:00.413      528.20487111    
17 May 2026 02:05:53.270    17 May 2026 02:14:31.178      517.90884091    
17 May 2026 03:47:17.847    17 May 2026 03:56:04.577      526.73039743    
17 May 2026 05:29:11.174    17 May 2026 05:35:55.897      404.72239929    
17 May 2026 21:12:56.928    17 May 2026 21:17:10.986      254.05839742    
17 May 2026 22:51:22.852    17 May 2026 23:00:01.704      518.85147435    
18 May 2026 00:32:40.426    18 May 2026 00:41:23.585      523.15894162    
18 May 2026 02:14:18.986    18 May 2026 02:23:00.833      521.84673257    
18 May 2026 03:55:41.681    18 May 2026 04:04:17.021      515.34000457    
18 May 2026 05:38:34.591    18 May 2026 05:42:40.058      245.46719195    
18 May 2026 21:19:42.339    18 May 2026 21:26:32.940      410.60094000    
18 May 2026 22:59:35.254    18 May 2026 23:08:25.426      530.17185275    
19 May 2026 00:41:10.053    19 May 2026 00:49:49.090      519.03719490    
19 May 2026 02:22:42.039    19 May 2026 02:31:28.787      526.74802551    
19 May 2026 04:04:11.186    19 May 2026 04:12:14.590      483.40436696    
19 May 2026 21:27:14.301    19 May 2026 21:35:17.446      483.14542368    
19 May 2026 23:07:57.236    19 May 2026 23:16:47.245      530.00849333    
20 May 2026 00:49:38.401    20 May 2026 00:58:17.076      518.67470724    
20 May 2026 02:31:03.832    20 May 2026 02:39:51.500      527.66794797    
20 May 2026 04:12:53.601    20 May 2026 04:19:49.623      416.02275919    
20 May 2026 19:56:58.983    20 May 2026 20:00:44.895      225.91211483    
20 May 2026 21:35:09.644    20 May 2026 21:43:47.678      518.03401562    
20 May 2026 23:16:24.633    20 May 2026 23:25:09.777      525.14395524    
21 May 2026 00:58:04.034    21 May 2026 01:06:46.283      522.24850097    
21 May 2026 02:39:26.872    21 May 2026 02:48:04.878      518.00607465    
21 May 2026 04:22:08.998    21 May 2026 04:26:42.053      273.05456620    
21 May 2026 20:03:34.456    21 May 2026 20:10:14.895      400.43898420    
21 May 2026 21:43:20.230    21 May 2026 21:52:11.409      531.17922790    
21 May 2026 23:24:53.835    21 May 2026 23:33:34.556      520.72105282    
22 May 2026 01:06:26.935    22 May 2026 01:15:14.165      527.23020801    
22 May 2026 02:47:55.008    22 May 2026 02:56:04.065      489.05686378    
22 May 2026 20:11:02.516    22 May 2026 20:19:01.380      478.86395110    
22 May 2026 21:51:40.900    22 May 2026 22:00:32.868      531.96865042    
22 May 2026 23:33:22.015    22 May 2026 23:42:01.864      519.84912157    
23 May 2026 01:14:48.351    23 May 2026 01:23:37.253      528.90183443    
23 May 2026 02:56:34.888    23 May 2026 03:03:41.918      427.02986354    
23 May 2026 18:41:02.911    23 May 2026 18:44:14.450      191.53846018    
23 May 2026 20:18:55.295    23 May 2026 20:27:32.301      517.00532004    
23 May 2026 22:00:07.451    23 May 2026 22:08:54.814      527.36261117    
23 May 2026 23:41:47.593    23 May 2026 23:50:30.619      523.02603334    
24 May 2026 01:23:10.671    24 May 2026 01:31:51.534      520.86247449    
24 May 2026 03:05:43.532    24 May 2026 03:10:41.402      297.87012324    
24 May 2026 18:47:25.917    24 May 2026 18:53:55.071      389.15378717    
24 May 2026 20:27:04.018    24 May 2026 20:35:56.121      532.10374637    
24 May 2026 22:08:36.211    24 May 2026 22:17:18.903      522.69165450    
24 May 2026 23:50:10.389    24 May 2026 23:58:58.416      528.02730657    
25 May 2026 01:31:37.545    25 May 2026 01:39:52.294      494.74867999    
25 May 2026 18:54:49.857    25 May 2026 19:02:43.857      474.00012338    
25 May 2026 20:35:23.368    25 May 2026 20:44:17.313      533.94516228    
25 May 2026 22:17:04.253    25 May 2026 22:25:45.577      521.32402430    
25 May 2026 23:58:31.519    26 May 2026 00:07:21.886      530.36697905    
26 May 2026 01:40:15.116    26 May 2026 01:47:32.854      437.73746017    
26 May 2026 17:25:11.234    26 May 2026 17:27:37.404      146.16993866    
26 May 2026 19:02:40.019    26 May 2026 19:11:15.630      515.61067959    
26 May 2026 20:43:49.078    26 May 2026 20:52:38.755      529.67753147    
26 May 2026 22:25:29.832    26 May 2026 22:34:13.911      524.07898289    
27 May 2026 00:06:53.225    27 May 2026 00:15:37.071      523.84532079    
27 May 2026 01:49:17.998    27 May 2026 01:54:38.522      320.52423492    
27 May 2026 17:31:17.036    27 May 2026 17:37:33.490      376.45399875    
27 May 2026 19:10:46.855    27 May 2026 19:19:39.648      532.79359691    
27 May 2026 20:52:17.402    27 May 2026 21:01:02.214      524.81163929    
27 May 2026 22:33:52.591    27 May 2026 22:42:41.631      529.04038068    
28 May 2026 00:15:18.961    28 May 2026 00:23:39.374      500.41324014    
28 May 2026 17:38:36.566    28 May 2026 17:46:24.939      468.37252710    
28 May 2026 19:19:04.857    28 May 2026 19:28:00.644      535.78720243    
28 May 2026 21:00:45.311    28 May 2026 21:09:28.278      522.96686674    
28 May 2026 22:42:13.496    28 May 2026 22:51:05.461      531.96563388    
29 May 2026 00:23:54.412    29 May 2026 00:31:22.510      448.09826855    
29 May 2026 16:09:33.791    29 May 2026 16:10:44.160      70.368710929    
29 May 2026 17:46:24.007    29 May 2026 17:54:57.699      513.69235050    
29 May 2026 19:27:29.689    29 May 2026 19:36:21.627      531.93814993    
29 May 2026 21:09:10.903    29 May 2026 21:17:56.182      525.27907823    
29 May 2026 22:50:34.655    29 May 2026 22:59:21.512      526.85731411    
30 May 2026 00:32:52.281    30 May 2026 00:38:33.650      341.36869916    
30 May 2026 16:15:08.068    30 May 2026 16:21:10.077      362.00811239    
30 May 2026 17:54:28.895    30 May 2026 18:03:21.995      533.09930116    
30 May 2026 19:35:57.548    30 May 2026 19:44:44.481      526.93321675    
30 May 2026 21:17:33.651    30 May 2026 21:26:23.798      530.14692297    
30 May 2026 22:58:59.338    30 May 2026 23:07:25.295      505.95685320    


Number of events : 160

