october_scenarios/puerto williams.txt

Observer: Puerto Williams, -54.94014, 292.40564
Start Time (UTC)            Stop Time (UTC)               Duration (s)         
02 May 2026 05:09:17.248    02 May 2026 05:12:27.899      190.65093419    
02 May 2026 06:47:48.557    02 May 2026 06:54:22.846      394.28880131    
02 May 2026 08:28:16.520    02 May 2026 08:34:40.819      384.29890440    
02 May 2026 10:11:10.277    02 May 2026 10:12:06.186      55.909715476    
03 May 2026 05:16:20.905    03 May 2026 05:21:25.185      304.28002799    
03 May 2026 06:55:49.026    03 May 2026 07:02:34.525      405.49867752    
03 May 2026 08:36:39.957    03 May 2026 08:42:25.745      345.78819873    
04 May 2026 05:23:55.486    04 May 2026 05:29:56.307      360.82100199    
04 May 2026 07:03:56.523    04 May 2026 07:10:39.372      402.84940854    
04 May 2026 08:45:17.593    04 May 2026 08:49:51.877      274.28443751    
05 May 2026 03:53:24.204    05 May 2026 03:56:12.184      167.98051866    
05 May 2026 05:31:44.994    05 May 2026 05:38:15.963      390.96901099    
05 May 2026 07:12:10.542    05 May 2026 07:18:36.267      385.72465167    
05 May 2026 08:54:42.266    05 May 2026 08:56:25.158      102.89130157    
06 May 2026 04:00:20.606    06 May 2026 04:05:15.236      294.63059582    
06 May 2026 05:39:44.115    06 May 2026 05:46:27.991      403.87679623    
06 May 2026 07:20:32.496    06 May 2026 07:26:22.238      349.74185644    
07 May 2026 04:07:52.405    07 May 2026 04:13:47.788      355.38252722    
07 May 2026 05:47:50.433    07 May 2026 05:54:33.202      402.76983777    
07 May 2026 07:29:07.648    07 May 2026 07:33:50.574      282.92576813    
08 May 2026 02:37:31.672    08 May 2026 02:39:53.617      141.94493612    
08 May 2026 04:15:40.113    08 May 2026 04:22:08.052      387.93824608    
08 May 2026 05:56:03.263    08 May 2026 06:02:30.661      387.39781575    
08 May 2026 07:38:20.929    08 May 2026 07:40:35.102      134.17366088    
09 May 2026 02:44:19.157    09 May 2026 02:49:04.079      284.92150482    
09 May 2026 04:23:37.854    09 May 2026 04:30:20.440      402.58567437    
09 May 2026 06:04:23.757    09 May 2026 06:10:17.635      353.87770864    
10 May 2026 02:51:48.021    10 May 2026 02:57:38.200      350.17818825    
10 May 2026 04:31:42.980    10 May 2026 04:38:26.014      403.03335381    
10 May 2026 06:12:56.547    10 May 2026 06:17:48.045      291.49779623    
11 May 2026 01:21:40.847    11 May 2026 01:23:30.953      110.10595484    
11 May 2026 02:59:33.871    11 May 2026 03:05:59.109      385.23828210    
11 May 2026 04:39:54.619    11 May 2026 04:46:24.018      389.39882959    
11 May 2026 06:22:01.342    11 May 2026 06:24:40.905      159.56335701    
12 May 2026 01:28:16.549    12 May 2026 01:32:51.671      275.12211527    
12 May 2026 03:07:30.199    12 May 2026 03:14:11.865      401.66619730    
12 May 2026 04:48:13.675    12 May 2026 04:54:11.957      358.28164082    
13 May 2026 01:35:42.290    13 May 2026 01:41:27.493      345.20298138    
13 May 2026 03:15:34.100    13 May 2026 03:22:17.778      403.67880457    
13 May 2026 04:56:44.187    13 May 2026 05:01:44.301      300.11443564    
14 May 2026 00:05:55.905    14 May 2026 00:06:59.876      63.971014414    
14 May 2026 01:43:26.195    14 May 2026 01:49:49.060      382.86551347    
14 May 2026 03:23:44.517    14 May 2026 03:30:16.283      391.76604763    
14 May 2026 05:05:42.098    14 May 2026 05:08:43.824      181.72657541    
15 May 2026 00:12:12.725    15 May 2026 00:16:37.857      265.13197948    
15 May 2026 01:51:21.043    15 May 2026 01:58:02.157      401.11457430    
15 May 2026 03:32:02.118    15 May 2026 03:38:05.112      362.99356583    
16 May 2026 00:19:35.130    16 May 2026 00:25:15.533      340.40292600    
16 May 2026 01:59:23.682    16 May 2026 02:06:08.386      404.70398508    
16 May 2026 03:40:30.429    16 May 2026 03:45:39.265      308.83584183    
17 May 2026 00:27:17.022    17 May 2026 00:33:37.797      380.77479388    
17 May 2026 02:07:32.875    17 May 2026 02:14:07.372      394.49734285    
17 May 2026 03:49:22.531    17 May 2026 03:52:44.363      201.83178659    
17 May 2026 22:56:07.733    17 May 2026 23:00:22.523      254.78952370    
18 May 2026 00:35:10.374    18 May 2026 00:41:51.263      400.88909460    
18 May 2026 02:15:49.058    18 May 2026 02:21:57.069      368.01048503    
18 May 2026 23:03:26.593    18 May 2026 23:09:02.274      335.68135070    
19 May 2026 00:43:11.752    19 May 2026 00:49:57.818      406.06574218    
19 May 2026 02:24:15.276    19 May 2026 02:29:32.940      317.66476636    
19 May 2026 23:11:06.419    19 May 2026 23:17:25.297      378.87763119    
20 May 2026 00:51:19.733    20 May 2026 00:57:57.277      397.54467972    
20 May 2026 02:33:02.366    20 May 2026 02:36:42.824      220.45796203    
20 May 2026 21:40:01.723    20 May 2026 21:44:05.567      243.84339990    
20 May 2026 23:18:58.256    20 May 2026 23:25:39.158      400.90181330    
21 May 2026 00:59:34.539    21 May 2026 01:05:47.817      373.27776183    
21 May 2026 21:47:16.796    21 May 2026 21:52:47.680      330.88433073    
21 May 2026 23:26:58.388    21 May 2026 23:33:46.061      407.67218967    
22 May 2026 01:07:58.783    22 May 2026 01:13:25.325      326.54198448    
22 May 2026 21:54:54.500    22 May 2026 22:01:11.540      377.03993402    
22 May 2026 23:35:05.181    22 May 2026 23:41:45.995      400.81371594    
23 May 2026 01:16:41.502    23 May 2026 01:20:39.388      237.88640992    
23 May 2026 20:23:54.938    23 May 2026 20:27:46.883      231.94538495    
23 May 2026 22:02:44.814    23 May 2026 22:09:25.838      401.02374831    
23 May 2026 23:43:18.663    23 May 2026 23:49:37.356      378.69324839    
24 May 2026 20:31:05.892    24 May 2026 20:36:31.716      325.82436207    
24 May 2026 22:10:43.708    24 May 2026 22:17:33.109      409.40119262    
24 May 2026 23:51:41.052    24 May 2026 23:57:16.421      335.36922707    
25 May 2026 20:38:41.436    25 May 2026 20:44:56.539      375.10291412    
25 May 2026 22:18:49.368    25 May 2026 22:25:33.549      404.18078208    
26 May 2026 00:00:19.957    26 May 2026 00:04:34.201      254.24441375    
26 May 2026 19:07:47.722    26 May 2026 19:11:26.379      218.65658218    
26 May 2026 20:46:30.244    26 May 2026 20:53:11.353      401.10859622    
26 May 2026 22:27:01.612    26 May 2026 22:33:25.744      384.13195229    
27 May 2026 19:14:54.144    27 May 2026 19:20:14.431      320.28682610    
27 May 2026 20:54:27.932    27 May 2026 21:01:19.038      411.10634299    
27 May 2026 22:35:22.286    27 May 2026 22:41:06.304      344.01756045    
28 May 2026 19:22:27.451    28 May 2026 19:28:40.339      372.88730806    
28 May 2026 21:02:32.492    28 May 2026 21:09:19.991      407.49852962    
28 May 2026 22:43:57.829    28 May 2026 22:48:27.391      269.56278206    
29 May 2026 17:51:40.479    29 May 2026 17:55:03.863      203.38487865    
29 May 2026 19:30:14.725    29 May 2026 19:36:55.714      400.98822119    
29 May 2026 21:10:43.545    29 May 2026 21:17:12.987      389.44219997    
29 May 2026 22:53:28.201    29 May 2026 22:54:47.855      79.654038884    
30 May 2026 17:58:41.745    30 May 2026 18:03:55.776      314.03108906    
30 May 2026 19:38:11.202    30 May 2026 19:45:03.826      412.62468304    
30 May 2026 21:19:02.609    30 May 2026 21:24:54.948      352.33923504    


Number of events : 96
